[
  {
    "name": "Make it possible",
    "category": "Teaching english for refugee children",
    "bgImg": "/images/popup/make_it_possible.jpg",
    "url": "https://www.volunteeringukraine.com/volunteer-opportunities/make-it-possible-ukraine",
    "positions": [
      {
        "city": "Lviv",
        "lat": 49.8171091,
        "lng": 24.0426762
      }
    ]
  },
  {
    "name": "Hell's kitchen",
    "category": "Preparing meals / Humanitarian work",
    "bgImg": "/images/popup/Hells_Kitchen.jpeg",
    "url": "https://www.volunteeringukraine.com/volunteer-opportunities/hells-kitchen",
    "positions": [
      {
        "city": "Kharkiv",
        "lat": 50.0004504,
        "lng": 36.2488766
      }
    ]
  },
  {
    "name": "Brave to Rebuild",
    "city": "Kyiv, Irpin, Bucha, Gostomel, Kharkiv region, Kherson",
    "category": "Rebuilding",
    "bgImg": "/images/popup/Brave_to_rebuild.jpeg",
    "url": "https://www.volunteeringukraine.com/volunteer-opportunities/brave-to-rebuild",
    "positions": [
      {
        "city": "Kyiv",
        "lat": 50.40908962777073,
        "lng": 30.555707764618944
      },
      {
        "city": "Irpin",
        "lat": 50.526148207437096,
        "lng": 30.241051982499705
      },
      {
        "city": "Gostomel",
        "lat": 50.5745745541678,
        "lng": 30.21459233809995
      },
      {
        "city": "Bucha",
        "lat": 50.55123109600308,
        "lng": 30.214980916426814
      },
      {
        "city": "Kharkiv (region)",
        "lat": 49.91463314226112,
        "lng": 36.26770730545602
      },
      {
        "city": "Kherson",
        "lat": 46.65525699716692,
        "lng": 32.60176875697831
      }
    ]
  },
  {
    "name": "Domivka - Animal Shelter",
    "category": "Animal shelter",
    "bgImg": "/images/popup/Animal_Shelter.jpeg",
    "url": "https://www.volunteeringukraine.com/volunteer-opportunities/domivka-shelter",
    "positions": [
      {
        "city": "Lviv",
        "lat": 49.846235,
        "lng": 24.046912
      }
    ]
  },
  {
    "name": "BUR - BUILDING UKRAINE TOGETHER",
    "city": "Zakarpattya, Lviv, Chernihiv, Kharkiv, Zaporizhzhia, Kyiv, Sumy(Okhtyrka)",
    "category": "Personal Development & Community rebuilding",
    "bgImg": "/images/popup/BUR.jpeg",
    "url": "https://www.volunteeringukraine.com/volunteer-opportunities/building-ukraine-together",
    "positions": [
      {
        "city": "Kyiv",
        "lat": 50.49215030556198,
        "lng": 30.660440453485446
      },
      {
        "city": "Zakarpattya",
        "lat": 48.59159997509973,
        "lng": 22.320418202411744
      },
      {
        "city": "Chernihiv",
        "lat": 51.49337673950696,
        "lng": 31.281607763906685
      },
      {
        "city": "Kharkiv",
        "lat": 50.024302279992355,
        "lng": 36.374467265455586
      },
      {
        "city": "Lviv",
        "lat": 49.83177359017015,
        "lng": 23.920910043829437
      },
      {
        "city": "Zaporizhzhia",
        "lat": 47.83443555670414,
        "lng": 35.078501162975485
      },
      {
        "city": "Sumy(Okhtyrka)",
        "lat": 50.31093468245315,
        "lng": 34.89738107324421
      }
    ]
  },
  {
    "name": "Dobrobat",
    "city": "Kyiv, Chernihiv, Kharkiv, Zaporizhzhia, Sumy, Mykolaiv, Kherson",
    "category": "Rebuilding",
    "bgImg": "/images/popup/dobrobrat.jpeg",
    "url": "https://www.volunteeringukraine.com/volunteer-opportunities/dobrobat-rebuilding",
    "positions": [
      {
        "city": "Kyiv",
        "lat": 50.52121866977834,
        "lng": 30.435364721416807
      },
      {
        "city": "Chernihiv",
        "lat": 51.44678725894608,
        "lng": 31.267472004379307
      },
      {
        "city": "Kharkiv",
        "lat": 49.90414192241719,
        "lng": 36.47524211593954
      },
      {
        "city": "Zaporizhzhia",
        "lat": 47.888841455359405,
        "lng": 35.33147460069738
      },
      {
        "city": "Sumy",
        "lat": 50.905171782465324,
        "lng": 34.783661970701
      },
      {
        "city": "Mykolaiv",
        "lat": 46.9524858319787,
        "lng": 31.96715518488871
      },
      {
        "city": "Kherson",
        "lat": 46.66553696249121,
        "lng": 32.67940737600025
      }
    ]
  },
  {
    "name": "Razom for Ukraine",
    "category": "Packing medical kits for soldiers and medics at the front lines",
    "bgImg": "/images/popup/Razom_for_Ukraine.jpeg",
    "url": "https://www.volunteeringukraine.com/volunteer-opportunities/razom-for-ukraine",
    "positions": [
      {
        "city": "Kyiv oblast",
        "lat": 50.5842745,
        "lng": 30.494609
      }
    ]
  },
  {
    "name": "Kyiv Kitchen Hub \"Ants\"",
    "category": "Preparation of dehydrated ready meals for soldiers on the frontline",
    "bgImg": "/images/popup/Kyiv_Kitchen_Ants.png",
    "url": "https://www.volunteeringukraine.com/volunteer-opportunities/kyiv-kitchen-ants",
    "positions": [
      {
        "city": "Kyiv oblast",
        "lat": 50.5034664,
        "lng": 30.5501114
      }
    ]
  },
  {
    "name": "Lviv Camouflage Netting",
    "category": "Crafting camouflage nets to protect soldiers at the frontline.",
    "bgImg": "/images/popup/Lviv_Camouflage_Netting.jpeg",
    "url": "https://www.volunteeringukraine.com/volunteer-opportunities/lviv-camouflage-netting",
    "positions": [
      {
        "city": "Lviv",
        "lat": 49.832689,
        "lng": 24.0122355
      }
    ]
  },
  {
    "name": "“Free Land” program",
    "category": "Demining territories in Ukraine, environmental cleanup, and organizing practical courses on handling explosive ordnance for specialized professionals and volunteers.",
    "bgImg": "/images/popup/Free_Land_Program.jpeg",
    "url": "https://www.volunteeringukraine.com/volunteer-opportunities/charitable-organization-bank-lviv-charitable-fund",
    "positions": [
      {
        "city": "Lviv",
        "lat": 49.8415405,
        "lng": 24.0329847
      }
    ]
  },
  {
    "name": "NGO \"Ukraine is Europe\"",
    "category": "Sending humanitarian convoys and ambulances to conflict zones, providing vital supplies and support",
    "bgImg": "/images/popup/NGO_Ukraine_is_Europe.png",
    "url": "https://www.volunteeringukraine.com/volunteer-opportunities/ukraine-is-europe",
    "positions": [
      {
        "city": "Lviv",
        "lat": 49.8327705,
        "lng": 23.9296644
      },
      {
        "city": "Dnipro",
        "lat": 48.462408,
        "lng": 34.83521
      },
      {
        "city": "Kharkiv",
        "lat": 49.9946724,
        "lng": 36.2032536
      }
    ]
  },
  {
    "name": "Pasta Cafe",
    "category": "Package dinners for IDP / Dry meal plan for soldiers",
    "bgImg": "/images/popup/pasta_cafe.jpg",
    "url": "https://www.volunteeringukraine.com/volunteer-opportunities/pc-pastacafe",
    "positions": [
      {
        "city": "Lviv",
        "lat": 49.8296501,
        "lng": 23.9941467
      }
    ]
  },
  {
    "name": "GO GLOBAL NGO",
    "category": "Online Educational Programs for Children",
    "bgImg": "/images/popup/go_global_ngo.jpeg",
    "url": "https://www.volunteeringukraine.com/volunteer-opportunities/go-global-ngo",
    "positions": [
      {
        "city": "Kyiv",
        "lat": 50.4512112,
        "lng": 30.5230788
      }
    ]
  },
  {
    "name": "Siobhan's Trust Ukraine",
    "category": "Cooking pizza for IDPs, orphans, elderly",
    "bgImg": "/images/popup/siobhans_trust.jpg",
    "url": "https://www.volunteeringukraine.com/volunteer-opportunities/siobhans-trust",
    "positions": [
      {
        "city": "Lviv",
        "lat": 49.8325722,
        "lng": 23.8474292
      },
      {
        "city": "Zaporizhzhya",
        "lat": 47.8561111,
        "lng": 35.0105465
      }
    ]
  }
]
